[
    {
        "name": "Yuvika Tour And Travels",
        "title_slug": "yuvika-tour-and-travels-near-jmd-garden-sohna-road",
        "category": "Car On Rent",
        "sub_category": "",
        "city": "Gurugram",
        "state": " Haryana",
        "address": "Address: 1st Floor Dada Mangeram Market, Near Indian Oil Petrol Pump, Sohna Road, Gurugram, Haryana 122001",
        "phone": "0124 479 5555",
        "website": "N/A",
        "rating": "4.0",
        "search_location": "Gurugram,  Haryana",
        "map_link": "https://www.google.com/maps/place/Park+Inn,+Gurgaon/data=!4m10!3m9!1s0x390d1837b438e73f:0x9aa67946e7ae2cc4!5m2!4m1!1i2!8m2!3d28.459012!4d77.031737!16s%2Fg%2F1hdzgxscw!19sChIJP-c4tDcYDTkRxCyu50Z5ppo?authuser=0&hl=en&rclk=1\n",
        "latitude": "28.459012",
        "longitude": "77.031737",
        "description": "Yuvika Tour And Travels is car rental agency in Gurgaon, Haryana."
    },
    {
        "name": "Foryuva Vehicle Rental Services",
        "title_slug": "Foryuva-vehicle-rental-services-hanuman-dharamkanta-saiyad-ul-ajaib",
        "category": "Bike On Rent",
        "sub_category": "N/A",
        "city": "Gurugram",
        "state": " Haryana",
        "address": "Address: Plot No 66, IGNOU Road, Saiyad Ul Ajaib, Gurugram, Haryana 123411",
        "phone": "0124 620 1166",
        "website": "",
        "rating": "3.9",
        "search_location": "Gurugram,  Haryana",
        "map_link": "https://www.google.com/maps/place/OYO+Townhouse+024+Sector+47+Gurgaon/data=!4m10!3m9!1s0x390d187dcd271693:0x53979c21ff771b7d!5m2!4m1!1i2!8m2!3d28.430731!4d77.053629!16s%2Fg%2F11gd00s46y!19sChIJkxYnzX0YDTkRfRt3_yGcl1M?authuser=0&hl=en&rclk=1\n",
        "latitude": "28.430731",
        "longitude": "77.053629",
        "description": ""
    },
    {
        "name": "Twinkle Ac Rent and Repair Service",
        "title_slug": "twinkle-ac-rent-and-repair-service-sector-46",
        "category": "AC On Rent",
        "sub_category": "N/A",
        "city": "Gurugram",
        "state": " Haryana",
        "address": "Address: Plot No-2364, Sector 46, Gurugram, Haryana 122001",
        "phone": "0124 620 1166",
        "website": "twinkleac.com",
        "rating": "3.9",
        "search_location": "Gurugram,  Haryana",
        "map_link": "https://www.google.com/maps/place/OYO+Townhouse+024+Sector+47+Gurgaon/data=!4m10!3m9!1s0x390d187dcd271693:0x53979c21ff771b7d!5m2!4m1!1i2!8m2!3d28.430731!4d77.053629!16s%2Fg%2F11gd00s46y!19sChIJkxYnzX0YDTkRfRt3_yGcl1M?authuser=0&hl=en&rclk=1\n",
        "latitude": "28.430731",
        "longitude": "77.053629",
        "description": ""
    },
    {
        "name": "Mayank Jain Bistar Bhandar",
        "title_slug": "mayank-jain-bistar-bhandar-behind-pf-office-dwarka-sector-23",
        "category": "Bed On Rent",
        "sub_category": "N/A",
        "city": "Gurugram",
        "state": " Haryana",
        "address": "Address: Plot No. 68, Sai Enclave, Dwarka Sector 23, Gurugram, Haryana 122001",
        "phone": "0124 620 1166",
        "website": "oyorooms.com",
        "rating": "3.9",
        "search_location": "Gurugram,  Haryana",
        "map_link": "https://www.google.com/maps/place/OYO+Townhouse+024+Sector+47+Gurgaon/data=!4m10!3m9!1s0x390d187dcd271693:0x53979c21ff771b7d!5m2!4m1!1i2!8m2!3d28.430731!4d77.053629!16s%2Fg%2F11gd00s46y!19sChIJkxYnzX0YDTkRfRt3_yGcl1M?authuser=0&hl=en&rclk=1\n",
        "latitude": "28.430731",
        "longitude": "77.053629",
        "description": ""
    },
    {
        "name": "Lucky Electric And Sanitary Store",
        "title_slug": "lucky-electric-and-sanitary-store-bhaktawar-chowk-gurgaon-sector-38",
        "category": "Plumber",
        "sub_category": "N/A",
        "city": "Gurugram",
        "state": " Haryana",
        "address": "Address: Plot No 66, IGNOU Road, Saiyad Ul Ajaib, Gurugram, Haryana 122001",
        "phone": "0124 620 1166",
        "website": "oyorooms.com",
        "rating": "3.9",
        "search_location": "Gurugram,  Haryana",
        "map_link": "https://www.google.com/maps/place/OYO+Townhouse+024+Sector+47+Gurgaon/data=!4m10!3m9!1s0x390d187dcd271693:0x53979c21ff771b7d!5m2!4m1!1i2!8m2!3d28.430731!4d77.053629!16s%2Fg%2F11gd00s46y!19sChIJkxYnzX0YDTkRfRt3_yGcl1M?authuser=0&hl=en&rclk=1\n",
        "latitude": "28.430731",
        "longitude": "77.053629",
        "description": ""
    },
    {
        "name": "Foryuva Vehicle Rental Services",
        "title_slug": "Foryuva-vehicle-rental-services-hanuman-dharamkanta-saiyad-ul-ajaib",
        "category": "Electricians",
        "sub_category": "N/A",
        "city": "Gurugram",
        "state": " Haryana",
        "address": "Address: Plot No 66, IGNOU Road, Saiyad Ul Ajaib, Gurugram, Haryana 122001",
        "phone": "0124 620 1166",
        "website": "oyorooms.com",
        "rating": "3.9",
        "search_location": "Gurugram,  Haryana",
        "map_link": "https://www.google.com/maps/place/OYO+Townhouse+024+Sector+47+Gurgaon/data=!4m10!3m9!1s0x390d187dcd271693:0x53979c21ff771b7d!5m2!4m1!1i2!8m2!3d28.430731!4d77.053629!16s%2Fg%2F11gd00s46y!19sChIJkxYnzX0YDTkRfRt3_yGcl1M?authuser=0&hl=en&rclk=1\n",
        "latitude": "28.430731",
        "longitude": "77.053629",
        "description": ""
    },
    {
        "name": "Foryuva Vehicle Rental Services",
        "title_slug": "Foryuva-vehicle-rental-services-hanuman-dharamkanta-saiyad-ul-ajaib",
        "category": "Salon",
        "sub_category": "N/A",
        "city": "Gurugram",
        "state": " Haryana",
        "address": "Address: Plot No 66, IGNOU Road, Saiyad Ul Ajaib, Gurugram, Haryana 122001",
        "phone": "0124 620 1166",
        "website": "oyorooms.com",
        "rating": "3.9",
        "search_location": "Gurugram,  Haryana",
        "map_link": "https://www.google.com/maps/place/OYO+Townhouse+024+Sector+47+Gurgaon/data=!4m10!3m9!1s0x390d187dcd271693:0x53979c21ff771b7d!5m2!4m1!1i2!8m2!3d28.430731!4d77.053629!16s%2Fg%2F11gd00s46y!19sChIJkxYnzX0YDTkRfRt3_yGcl1M?authuser=0&hl=en&rclk=1\n",
        "latitude": "28.430731",
        "longitude": "77.053629",
        "description": ""
    },
    {
        "name": "Foryuva Vehicle Rental Services",
        "title_slug": "Foryuva-vehicle-rental-services-hanuman-dharamkanta-saiyad-ul-ajaib",
        "category": "Doctors",
        "sub_category": "N/A",
        "city": "Gurugram",
        "state": " Haryana",
        "address": "Address: Plot No 66, IGNOU Road, Saiyad Ul Ajaib, Gurugram, Haryana 122001",
        "phone": "0124 620 1166",
        "website": "oyorooms.com",
        "rating": "3.9",
        "search_location": "Gurugram,  Haryana",
        "map_link": "https://www.google.com/maps/place/OYO+Townhouse+024+Sector+47+Gurgaon/data=!4m10!3m9!1s0x390d187dcd271693:0x53979c21ff771b7d!5m2!4m1!1i2!8m2!3d28.430731!4d77.053629!16s%2Fg%2F11gd00s46y!19sChIJkxYnzX0YDTkRfRt3_yGcl1M?authuser=0&hl=en&rclk=1\n",
        "latitude": "28.430731",
        "longitude": "77.053629",
        "description": ""
    },
    {
        "name": "Foryuva Vehicle Rental Services",
        "title_slug": "Foryuva-vehicle-rental-services-hanuman-dharamkanta-saiyad-ul-ajaib",
        "category": "Hospitals",
        "sub_category": "N/A",
        "city": "Gurugram",
        "state": " Haryana",
        "address": "Address: Plot No 66, IGNOU Road, Saiyad Ul Ajaib, Gurugram, Haryana 122001",
        "phone": "0124 620 1166",
        "website": "oyorooms.com",
        "rating": "3.9",
        "search_location": "Gurugram,  Haryana",
        "map_link": "https://www.google.com/maps/place/OYO+Townhouse+024+Sector+47+Gurgaon/data=!4m10!3m9!1s0x390d187dcd271693:0x53979c21ff771b7d!5m2!4m1!1i2!8m2!3d28.430731!4d77.053629!16s%2Fg%2F11gd00s46y!19sChIJkxYnzX0YDTkRfRt3_yGcl1M?authuser=0&hl=en&rclk=1\n",
        "latitude": "28.430731",
        "longitude": "77.053629",
        "description": ""
    },
    {
        "name": "Foryuva Vehicle Rental Services",
        "title_slug": "Foryuva-vehicle-rental-services-hanuman-dharamkanta-saiyad-ul-ajaib",
        "category": "Chemists",
        "sub_category": "2-star hotel",
        "city": "Gurugram",
        "state": " Haryana",
        "address": "Address: Plot No 66, IGNOU Road, Saiyad Ul Ajaib, Gurugram, Haryana 122001",
        "phone": "0124 620 1166",
        "website": "oyorooms.com",
        "rating": "3.9",
        "search_location": "Gurugram,  Haryana",
        "map_link": "https://www.google.com/maps/place/OYO+Townhouse+024+Sector+47+Gurgaon/data=!4m10!3m9!1s0x390d187dcd271693:0x53979c21ff771b7d!5m2!4m1!1i2!8m2!3d28.430731!4d77.053629!16s%2Fg%2F11gd00s46y!19sChIJkxYnzX0YDTkRfRt3_yGcl1M?authuser=0&hl=en&rclk=1\n",
        "latitude": "28.430731",
        "longitude": "77.053629",
        "description": ""
    },
    {
        "name": "Foryuva Vehicle Rental Services",
        "title_slug": "Foryuva-vehicle-rental-services-hanuman-dharamkanta-saiyad-ul-ajaib",
        "category": "Schools",
        "sub_category": "2-star hotel",
        "city": "Gurugram",
        "state": " Haryana",
        "address": "Address: Plot No 66, IGNOU Road, Saiyad Ul Ajaib, Gurugram, Haryana 122001",
        "phone": "0124 620 1166",
        "website": "oyorooms.com",
        "rating": "3.9",
        "search_location": "Gurugram,  Haryana",
        "map_link": "https://www.google.com/maps/place/OYO+Townhouse+024+Sector+47+Gurgaon/data=!4m10!3m9!1s0x390d187dcd271693:0x53979c21ff771b7d!5m2!4m1!1i2!8m2!3d28.430731!4d77.053629!16s%2Fg%2F11gd00s46y!19sChIJkxYnzX0YDTkRfRt3_yGcl1M?authuser=0&hl=en&rclk=1\n",
        "latitude": "28.430731",
        "longitude": "77.053629",
        "description": ""
    },
    {
        "name": "Foryuva Vehicle Rental Services",
        "title_slug": "Foryuva-vehicle-rental-services-hanuman-dharamkanta-saiyad-ul-ajaib",
        "category": "Cooks",
        "sub_category": "2-star hotel",
        "city": "Gurugram",
        "state": " Haryana",
        "address": "Address: Plot No 66, IGNOU Road, Saiyad Ul Ajaib, Gurugram, Haryana 122001",
        "phone": "0124 620 1166",
        "website": "oyorooms.com",
        "rating": "3.9",
        "search_location": "Gurugram,  Haryana",
        "map_link": "https://www.google.com/maps/place/OYO+Townhouse+024+Sector+47+Gurgaon/data=!4m10!3m9!1s0x390d187dcd271693:0x53979c21ff771b7d!5m2!4m1!1i2!8m2!3d28.430731!4d77.053629!16s%2Fg%2F11gd00s46y!19sChIJkxYnzX0YDTkRfRt3_yGcl1M?authuser=0&hl=en&rclk=1\n",
        "latitude": "28.430731",
        "longitude": "77.053629",
        "description": ""
    },
    {
        "name": "Foryuva Vehicle Rental Services",
        "title_slug": "Foryuva-vehicle-rental-services-hanuman-dharamkanta-saiyad-ul-ajaib",
        "category": "Police",
        "sub_category": "2-star hotel",
        "city": "Gurugram",
        "state": " Haryana",
        "address": "Address: Plot No 66, IGNOU Road, Saiyad Ul Ajaib, Gurugram, Haryana 122001",
        "phone": "0124 620 1166",
        "website": "oyorooms.com",
        "rating": "3.9",
        "search_location": "Gurugram,  Haryana",
        "map_link": "https://www.google.com/maps/place/OYO+Townhouse+024+Sector+47+Gurgaon/data=!4m10!3m9!1s0x390d187dcd271693:0x53979c21ff771b7d!5m2!4m1!1i2!8m2!3d28.430731!4d77.053629!16s%2Fg%2F11gd00s46y!19sChIJkxYnzX0YDTkRfRt3_yGcl1M?authuser=0&hl=en&rclk=1\n",
        "latitude": "28.430731",
        "longitude": "77.053629",
        "description": ""
    },
    {
        "name": "Foryuva Vehicle Rental Services",
        "title_slug": "Foryuva-vehicle-rental-services-hanuman-dharamkanta-saiyad-ul-ajaib",
        "category": "Railways",
        "sub_category": "2-star hotel",
        "city": "Gurugram",
        "state": " Haryana",
        "address": "Address: Plot No 66, IGNOU Road, Saiyad Ul Ajaib, Gurugram, Haryana 122001",
        "phone": "0124 620 1166",
        "website": "oyorooms.com",
        "rating": "3.9",
        "search_location": "Gurugram,  Haryana",
        "map_link": "https://www.google.com/maps/place/OYO+Townhouse+024+Sector+47+Gurgaon/data=!4m10!3m9!1s0x390d187dcd271693:0x53979c21ff771b7d!5m2!4m1!1i2!8m2!3d28.430731!4d77.053629!16s%2Fg%2F11gd00s46y!19sChIJkxYnzX0YDTkRfRt3_yGcl1M?authuser=0&hl=en&rclk=1\n",
        "latitude": "28.430731",
        "longitude": "77.053629",
        "description": ""
    },
    {
        "name": "Foryuva Vehicle Rental Services",
        "title_slug": "Foryuva-vehicle-rental-services-hanuman-dharamkanta-saiyad-ul-ajaib",
        "category": "Bus Station",
        "sub_category": "2-star hotel",
        "city": "Gurugram",
        "state": " Haryana",
        "address": "Address: Plot No 66, IGNOU Road, Saiyad Ul Ajaib, Gurugram, Haryana 122001",
        "phone": "0124 620 1166",
        "website": "oyorooms.com",
        "rating": "3.9",
        "search_location": "Gurugram,  Haryana",
        "map_link": "https://www.google.com/maps/place/OYO+Townhouse+024+Sector+47+Gurgaon/data=!4m10!3m9!1s0x390d187dcd271693:0x53979c21ff771b7d!5m2!4m1!1i2!8m2!3d28.430731!4d77.053629!16s%2Fg%2F11gd00s46y!19sChIJkxYnzX0YDTkRfRt3_yGcl1M?authuser=0&hl=en&rclk=1\n",
        "latitude": "28.430731",
        "longitude": "77.053629",
        "description": ""
    },
    {
        "name": "Foryuva Vehicle Rental Services",
        "title_slug": "Foryuva-vehicle-rental-services-hanuman-dharamkanta-saiyad-ul-ajaib",
        "category": "Banquet Halls",
        "sub_category": "2-star hotel",
        "city": "Gurugram",
        "state": " Haryana",
        "address": "Address: Plot No 66, IGNOU Road, Saiyad Ul Ajaib, Gurugram, Haryana 122001",
        "phone": "0124 620 1166",
        "website": "oyorooms.com",
        "rating": "3.9",
        "search_location": "Gurugram,  Haryana",
        "map_link": "https://www.google.com/maps/place/OYO+Townhouse+024+Sector+47+Gurgaon/data=!4m10!3m9!1s0x390d187dcd271693:0x53979c21ff771b7d!5m2!4m1!1i2!8m2!3d28.430731!4d77.053629!16s%2Fg%2F11gd00s46y!19sChIJkxYnzX0YDTkRfRt3_yGcl1M?authuser=0&hl=en&rclk=1\n",
        "latitude": "28.430731",
        "longitude": "77.053629",
        "description": ""
    },
    {
        "name": "Foryuva Vehicle Rental Services",
        "title_slug": "Foryuva-vehicle-rental-services-hanuman-dharamkanta-saiyad-ul-ajaib",
        "category": "Photographers",
        "sub_category": "2-star hotel",
        "city": "Gurugram",
        "state": " Haryana",
        "address": "Address: Plot No 66, IGNOU Road, Saiyad Ul Ajaib, Gurugram, Haryana 122001",
        "phone": "0124 620 1166",
        "website": "oyorooms.com",
        "rating": "3.9",
        "search_location": "Gurugram,  Haryana",
        "map_link": "https://www.google.com/maps/place/OYO+Townhouse+024+Sector+47+Gurgaon/data=!4m10!3m9!1s0x390d187dcd271693:0x53979c21ff771b7d!5m2!4m1!1i2!8m2!3d28.430731!4d77.053629!16s%2Fg%2F11gd00s46y!19sChIJkxYnzX0YDTkRfRt3_yGcl1M?authuser=0&hl=en&rclk=1\n",
        "latitude": "28.430731",
        "longitude": "77.053629",
        "description": ""
    },
    {
        "name": "Foryuva Vehicle Rental Services",
        "title_slug": "Foryuva-vehicle-rental-services-hanuman-dharamkanta-saiyad-ul-ajaib",
        "category": "Dance Classes",
        "sub_category": "2-star hotel",
        "city": "Gurugram",
        "state": " Haryana",
        "address": "Address: Plot No 66, IGNOU Road, Saiyad Ul Ajaib, Gurugram, Haryana 122001",
        "phone": "0124 620 1166",
        "website": "oyorooms.com",
        "rating": "3.9",
        "search_location": "Gurugram,  Haryana",
        "map_link": "https://www.google.com/maps/place/OYO+Townhouse+024+Sector+47+Gurgaon/data=!4m10!3m9!1s0x390d187dcd271693:0x53979c21ff771b7d!5m2!4m1!1i2!8m2!3d28.430731!4d77.053629!16s%2Fg%2F11gd00s46y!19sChIJkxYnzX0YDTkRfRt3_yGcl1M?authuser=0&hl=en&rclk=1\n",
        "latitude": "28.430731",
        "longitude": "77.053629",
        "description": ""
    },
    {
        "name": "Foryuva Vehicle Rental Services",
        "title_slug": "Foryuva-vehicle-rental-services-hanuman-dharamkanta-saiyad-ul-ajaib",
        "category": "Internet Service Provider",
        "sub_category": "2-star hotel",
        "city": "Gurugram",
        "state": " Haryana",
        "address": "Address: Plot No 66, IGNOU Road, Saiyad Ul Ajaib, Gurugram, Haryana 122001",
        "phone": "0124 620 1166",
        "website": "oyorooms.com",
        "rating": "3.9",
        "search_location": "Gurugram,  Haryana",
        "map_link": "https://www.google.com/maps/place/OYO+Townhouse+024+Sector+47+Gurgaon/data=!4m10!3m9!1s0x390d187dcd271693:0x53979c21ff771b7d!5m2!4m1!1i2!8m2!3d28.430731!4d77.053629!16s%2Fg%2F11gd00s46y!19sChIJkxYnzX0YDTkRfRt3_yGcl1M?authuser=0&hl=en&rclk=1\n",
        "latitude": "28.430731",
        "longitude": "77.053629",
        "description": ""
    },
    {
        "name": "Foryuva Vehicle Rental Services",
        "title_slug": "Foryuva-vehicle-rental-services-hanuman-dharamkanta-saiyad-ul-ajaib",
        "category": "Chinese Restaurants",
        "sub_category": "2-star hotel",
        "city": "Gurugram",
        "state": " Haryana",
        "address": "Address: Plot No 66, IGNOU Road, Saiyad Ul Ajaib, Gurugram, Haryana 122001",
        "phone": "0124 620 1166",
        "website": "oyorooms.com",
        "rating": "3.9",
        "search_location": "Gurugram,  Haryana",
        "map_link": "https://www.google.com/maps/place/OYO+Townhouse+024+Sector+47+Gurgaon/data=!4m10!3m9!1s0x390d187dcd271693:0x53979c21ff771b7d!5m2!4m1!1i2!8m2!3d28.430731!4d77.053629!16s%2Fg%2F11gd00s46y!19sChIJkxYnzX0YDTkRfRt3_yGcl1M?authuser=0&hl=en&rclk=1\n",
        "latitude": "28.430731",
        "longitude": "77.053629",
        "description": ""
    }
]